{
"type": "FeatureCollection",
"crs": { "type": "name", "properties": { "name": "urn:ogc:def:crs:OGC:1.3:CRS84" } },
                                                                                
"features": [
{ "type": "Feature", "properties": { "HID": 5720, "A32_003": "金沢中学校", "label": "金沢中", "ZIP": "236-0042", "address": "神奈川県横浜市金沢区横浜市金沢区釜利谷東一丁目1-1", "x": 139.61768, "y": 35.341751, "TEL": "045-781-2412", "FAX": "045-783-9689", "Access": "京急金沢文庫駅下車5分", "Start": "1947-05-01T00:00:00.000Z", "url": "http:\/\/www.edu.city.yokohama.jp\/sch\/jhs\/kanazawa\/", "Update": "2013\/4\/1" }, "geometry": { "type": "Point", "coordinates": [ 139.61768, 35.341751 ] } },
{ "type": "Feature", "properties": { "HID": 5728, "A32_003": "釜利谷中学校", "label": "釜利谷中", "ZIP": "236-0045", "address": "神奈川県横浜市金沢区釜利谷南三丁目5-1", "x": 139.604691, "y": 35.337341, "TEL": "045-784-7311", "FAX": "045-783-9762", "Access": "京急金沢文庫駅京急バスパークタウン経由関東学院大学金沢文庫キャンパス行パークタウン東下車1分", "Start": "1986-04-01T00:00:00.000Z", "url": "http:\/\/www.edu.city.yokohama.jp\/sch\/jhs\/kamariya\/", "Update": "2013\/4\/1" }, "geometry": { "type": "Point", "coordinates": [ 139.604691, 35.337341 ] } },
{ "type": "Feature", "properties": { "HID": 5729, "A32_003": "小田中学校", "label": "小田中", "ZIP": "236-0052", "address": "神奈川県横浜市金沢区富岡西一丁目73-1", "x": 139.61926, "y": 35.370789, "TEL": "045-775-3801", "FAX": "045-773-9487", "Access": "京急富岡駅京急バスパームヒルズ京急富岡下車3分又は小田中学校前下車1分", "Start": "1992-04-01T00:00:00.000Z", "url": "http:\/\/www.edu.city.yokohama.jp\/sch\/jhs\/koda\/", "Update": "2013\/4\/1" }, "geometry": { "type": "Point", "coordinates": [ 139.61926, 35.370789 ] } },
{ "type": "Feature", "properties": { "HID": 5722, "A32_003": "大道中学校", "label": "大道中", "ZIP": "236-0035", "address": "神奈川県横浜市金沢区大道一丁目85-1", "x": 139.60115, "y": 35.330318, "TEL": "045-781-2457", "FAX": "045-783-9719", "Access": "京急金沢八景駅京急バス又は神奈中バス大道中学校前下車5分", "Start": "1963-05-01T00:00:00.000Z", "url": "http:\/\/www.edu.city.yokohama.jp\/sch\/jhs\/daido\/", "Update": "2013\/4\/1" }, "geometry": { "type": "Point", "coordinates": [ 139.60115, 35.330318 ] } },
{ "type": "Feature", "properties": { "HID": 5724, "A32_003": "富岡中学校", "label": "富岡中", "ZIP": "236-0052", "address": "神奈川県横浜市金沢区富岡西五丁目46-1", "x": 139.614075, "y": 35.36092, "TEL": "045-773-1218", "FAX": "045-773-9429", "Access": "京急能見台駅京急バス氷取沢高校行能見台一丁目下車5分", "Start": "1973-04-01T00:00:00.000Z", "url": "http:\/\/www.edu.city.yokohama.jp\/sch\/jhs\/tomioka\/", "Update": "2013\/4\/1" }, "geometry": { "type": "Point", "coordinates": [ 139.614075, 35.36092 ] } },
{ "type": "Feature", "properties": { "HID": 5725, "A32_003": "富岡東中学校", "label": "富岡東中", "ZIP": "236-0005", "address": "神奈川県横浜市金沢区並木一丁目6-1", "x": 139.63736, "y": 35.372639, "TEL": "045-771-0716", "FAX": "045-773-9439", "Access": "京急富岡駅下車15分又はシーサイドライン並木北駅下車5分", "Start": "1979-04-01T00:00:00.000Z", "url": "http:\/\/www.edu.city.yokohama.jp\/sch\/jhs\/tomiokahigashi\/", "Update": "2013\/4\/1" }, "geometry": { "type": "Point", "coordinates": [ 139.63736, 35.372639 ] } },
{ "type": "Feature", "properties": { "HID": 5727, "A32_003": "並木中学校", "label": "並木中", "ZIP": "236-0005", "address": "神奈川県横浜市金沢区並木三丁目4-1", "x": 139.640594, "y": 35.359612, "TEL": "045-783-5805", "FAX": "045-783-9756", "Access": "JR新杉田駅又は京急金沢八景駅から金沢シーサイドライン幸浦駅下車3分", "Start": "1982-04-01T00:00:00.000Z", "url": "http:\/\/www.edu.city.yokohama.jp\/sch\/jhs\/namiki\/", "Update": "2013\/4\/1" }, "geometry": { "type": "Point", "coordinates": [ 139.640594, 35.359612 ] } },
{ "type": "Feature", "properties": { "HID": 5726, "A32_003": "西金沢中学校", "label": "西金沢中", "ZIP": "236-0046", "address": "神奈川県横浜市金沢区釜利谷西四丁目8-1", "x": 139.594849, "y": 35.34594, "TEL": "045-782-2560", "FAX": "045-783-9739", "Access": "京急金沢文庫駅京急バス野村住宅センター行中学校前下車3分", "Start": "1981-04-01T00:00:00.000Z", "url": "http:\/\/www.edu.city.yokohama.jp\/sch\/jhs\/nishikanazawa\/", "Update": "2013\/4\/1" }, "geometry": { "type": "Point", "coordinates": [ 139.594849, 35.34594 ] } },
{ "type": "Feature", "properties": { "HID": 5723, "A32_003": "西柴中学校", "label": "西柴中", "ZIP": "236-0017", "address": "神奈川県横浜市金沢区西柴一丁目23-1", "x": 139.62912, "y": 35.352749, "TEL": "045-781-2448", "FAX": "045-783-9738", "Access": "京急金沢文庫駅又は能見台駅から京急バス（4）上西柴下車3分", "Start": "1963-05-01T00:00:00.000Z", "url": "http:\/\/www.edu.city.yokohama.jp\/sch\/jhs\/nishishiba\/", "Update": "2013\/4\/1" }, "geometry": { "type": "Point", "coordinates": [ 139.62912, 35.352749 ] } },
{ "type": "Feature", "properties": { "HID": 5721, "A32_003": "六浦中学校", "label": "六浦中", "ZIP": "236-0031", "address": "神奈川県横浜市金沢区六浦一丁目24-4", "x": 139.618103, "y": 35.324348, "TEL": "045-701-7658", "FAX": "045-783-9709", "Access": "京急金沢八景駅下車10分", "Start": "1947-04-01T00:00:00.000Z", "url": "http:\/\/www.edu.city.yokohama.jp\/sch\/jhs\/mutsuura\/", "Update": "2013\/4\/1" }, "geometry": { "type": "Point", "coordinates": [ 139.618103, 35.324348 ] } }
]
}
